{
"type": "FeatureCollection",
"name": "Stands",
"crs": { "type": "name", "properties": { "name": "urn:ogc:def:crs:OGC:1.3:CRS84" } },
"features": [
{ "type": "Feature", "properties": { "id": null, "Name": "House", "description": null, "timestamp": null, "begin": null, "end": null, "altitudeMode": null, "tessellate": -1, "extrude": 0, "visibility": -1, "drawOrder": null, "icon": null }, "geometry": { "type": "Point", "coordinates": [ -89.482873467311393, 44.184202211123079, 0.0 ] } },
{ "type": "Feature", "properties": { "id": null, "Name": "Chris", "description": null, "timestamp": null, "begin": null, "end": null, "altitudeMode": null, "tessellate": -1, "extrude": 0, "visibility": -1, "drawOrder": null, "icon": null }, "geometry": { "type": "Point", "coordinates": [ -89.490926052118169, 44.180175654131013, 0.0 ] } },
{ "type": "Feature", "properties": { "id": null, "Name": "JIM", "description": "Jims Stand - Truck Cap", "timestamp": null, "begin": null, "end": null, "altitudeMode": null, "tessellate": -1, "extrude": 0, "visibility": -1, "drawOrder": null, "icon": null }, "geometry": { "type": "Point", "coordinates": [ -89.490679890303369, 44.181936735443131, 0.0 ] } },
{ "type": "Feature", "properties": { "id": null, "Name": "HiChair", "description": "High Chari stand on round top", "timestamp": null, "begin": null, "end": null, "altitudeMode": null, "tessellate": -1, "extrude": 0, "visibility": -1, "drawOrder": null, "icon": null }, "geometry": { "type": "Point", "coordinates": [ -89.486000557288875, 44.180659494290843, 0.0 ] } },
{ "type": "Feature", "properties": { "id": null, "Name": "DoubleLadder", "description": "Ladder Stand", "timestamp": null, "begin": null, "end": null, "altitudeMode": null, "tessellate": -1, "extrude": 0, "visibility": -1, "drawOrder": null, "icon": null }, "geometry": { "type": "Point", "coordinates": [ -89.487228465670782, 44.178999666550411, 0.0 ] } },
{ "type": "Feature", "properties": { "id": null, "Name": "Becky", "description": null, "timestamp": null, "begin": null, "end": null, "altitudeMode": null, "tessellate": -1, "extrude": 0, "visibility": -1, "drawOrder": null, "icon": null }, "geometry": { "type": "Point", "coordinates": [ -89.480203764587699, 44.183771710820537, 0.0 ] } },
{ "type": "Feature", "properties": { "id": null, "Name": "Stan Box", "description": null, "timestamp": null, "begin": null, "end": null, "altitudeMode": null, "tessellate": -1, "extrude": 0, "visibility": -1, "drawOrder": null, "icon": null }, "geometry": { "type": "Point", "coordinates": [ -89.484980483876058, 44.183388311181908, 0.0 ] } },
{ "type": "Feature", "properties": { "id": null, "Name": "NoName", "description": "Ladder stand", "timestamp": null, "begin": null, "end": null, "altitudeMode": null, "tessellate": -1, "extrude": 0, "visibility": -1, "drawOrder": null, "icon": null }, "geometry": { "type": "Point", "coordinates": [ -89.487253576464738, 44.183361115615646, 0.0 ] } },
{ "type": "Feature", "properties": { "id": null, "Name": "Bonnie", "description": "Bonnie's Stand = Pickup Bed", "timestamp": null, "begin": null, "end": null, "altitudeMode": null, "tessellate": -1, "extrude": 0, "visibility": -1, "drawOrder": null, "icon": null }, "geometry": { "type": "Point", "coordinates": [ -89.478069186288195, 44.177580785490981, 0.0 ] } },
{ "type": "Feature", "properties": { "id": null, "Name": "Neil Ladder", "description": null, "timestamp": null, "begin": null, "end": null, "altitudeMode": null, "tessellate": -1, "extrude": 0, "visibility": -1, "drawOrder": null, "icon": null }, "geometry": { "type": "Point", "coordinates": [ -89.487898704703568, 44.18198811534689, 0.0 ] } },
{ "type": "Feature", "properties": { "id": null, "Name": "Rocking Chair", "description": null, "timestamp": null, "begin": null, "end": null, "altitudeMode": null, "tessellate": -1, "extrude": 0, "visibility": -1, "drawOrder": null, "icon": null }, "geometry": { "type": "Point", "coordinates": [ -89.487807267555638, 44.181031607063318, 0.0 ] } }
]
}
